{"code":0,"msg":"success","data":[
    {"country":"laowo","citylist":[
        {"city":"\u8001\u631d","partners":[
            {"id":"19","name":"\u8d8a\u5357\u8001\u631d\u8d85\u7ea7\u4f73\u917f","phone":"12121233","address":"\u8d8a\u5357\u8001\u631d\u5185\u6cb3\u5927\u6e2f","lng":"118","lat":"86","wechat":"laowodagang","duration":"1:00-2:00","desc":"\u8d8a\u5357\u8001\u631d\u8d85\u7ea7\u4f73\u917f\u3002\u8ba9\u9152\u9999\u98d8\u6563\u5728\u4e16\u754c\u5404\u5730\uff0c\u6709\u94b1\u5c31\u662f\u8fd9\u4e48\u4efb\u6027\uff0c\u6b27\u8036\uff01"}]
        }]
    },
    {"country":"China","citylist":[
        {"city":"\u5e7f\u5dde","partners":[
            {"id":"18","name":"\u5e7f\u5dde\u5384\u5c14","phone":"123334131","address":"\u6df1\u5733\u7ea2\u70e7\u9152\u5357\u5c71\u5206\u5e97","lng":"113.343295","lat":"23.411148","wechat":"hongshaojiu","duration":"1:00-2:00","desc":"\u4e09\u7897\u4e0d\u8fc7\u5c97\uff0c\u8bf4\u7684\u5c31\u662f\u54b1\uff0c\u6709\u79cd\u6765\u8bd5\u8bd5\uff1f\u8fd8\u6253\u5f97\u4e86\u864e\u4e0d\uff1f"},
			{"id":"17","name":"\u5e7f\u5dde\u5927\u5927\u9053","phone":"1233413131","address":"\u6df1\u5733\u7ea2\u70e7\u9152\u5357\u5c71\u5206\u5e97","lng":"113.343295","lat":"23.411148","wechat":"hongshaojiu","duration":"1:00-2:00","desc":"\u4e09\u7897\u4e0d\u8fc7\u5c97\uff0c\u8bf4\u7684\u5c31\u662f\u54b1\uff0c\u6709\u79cd\u6765\u8bd5\u8bd5\uff1f\u8fd8\u6253\u5f97\u4e86\u864e\u4e0d\uff1f"},
            {"id":"16","name":"\u5e7f\u5dde\u9152\u5bb6","phone":"1233413131","address":"\u6df1\u5733\u7ea2\u70e7\u9152\u5357\u5c71\u5206\u5e97","lng":"113.286953","lat":"23.155142","wechat":"hongshaojiu","duration":"1:00-2:00","desc":"\u4e09\u7897\u4e0d\u8fc7\u5c97\uff0c\u8bf4\u7684\u5c31\u662f\u54b1\uff0c\u6709\u79cd\u6765\u8bd5\u8bd5\uff1f\u8fd8\u6253\u5f97\u4e86\u864e\u4e0d\uff1f"},
            {"id":"15","name":"\u5e7f\u5dde\u5927\u6b22\u4e50","phone":"1214321212","address":"\u6df1\u5733\u5357\u5c71\u533a\u6df1\u5733\u5927\u5b66","lng":"113.258207","lat":"23.110476","wechat":"shenzhentemai","duration":"1:00-2:00","desc":"\u5f00\u5728\u6df1\u5733\u5927\u5b66\u91cc\u7684\u9152\u574a\uff0c\u9152\u9999\u5341\u91cc\u3002\u9152\u4e0d\u9189\u4eba\u4eba\u90fd\u9189\u4e86\u3002\u6212\u9152\u7684\u9a9a\u5e74\u52ff\u9760\u8fd1\u65b9\u570610\u516c\u91cc\uff0c\u4fdd\u8bc1\u60a8\u6212\u9152\u5931\u8d25\u3002\u672c\u5e97\u4e0d\u62c5\u8d23\u4efb\uff01"}]
        },
        {"city":"\u6df1\u5733","partners":[
            {"id":"14","name":"\u6df1\u5733\u745e\u7136","phone":"12313131","address":"\u6df1\u5733\u7ea2\u70e7\u9152\u5357\u5c71\u5206\u5e97","lng":"113.969632","lat":"22.604788","wechat":"hongshaojiu","duration":"1:00-2:00","desc":"\u4e09\u7897\u4e0d\u8fc7\u5c97\uff0c\u8bf4\u7684\u5c31\u662f\u54b1\uff0c\u6709\u79cd\u6765\u8bd5\u8bd5\uff1f\u8fd8\u6253\u5f97\u4e86\u864e\u4e0d\uff1f"},
			{"id":"13","name":"\u6df1\u5733\u540e\u5982\u4f55","phone":"12313131","address":"\u6df1\u5733\u7ea2\u70e7\u9152\u5357\u5c71\u5206\u5e97","lng":"114.027124","lat":"22.543918","wechat":"hongshaojiu","duration":"1:00-2:00","desc":"\u4e09\u7897\u4e0d\u8fc7\u5c97\uff0c\u8bf4\u7684\u5c31\u662f\u54b1\uff0c\u6709\u79cd\u6765\u8bd5\u8bd5\uff1f\u8fd8\u6253\u5f97\u4e86\u864e\u4e0d\uff1f"},
			{"id":"12","name":"\u6df1\u5733\u4e2a\u4eba\u5de5\u8d39\u67d3\u53d1","phone":"12313131","address":"\u6df1\u5733\u7ea2\u70e7\u9152\u5357\u5c71\u5206\u5e97","lng":"113.938587","lat":"22.54819","wechat":"hongshaojiu","duration":"1:00-2:00","desc":"\u4e09\u7897\u4e0d\u8fc7\u5c97\uff0c\u8bf4\u7684\u5c31\u662f\u54b1\uff0c\u6709\u79cd\u6765\u8bd5\u8bd5\uff1f\u8fd8\u6253\u5f97\u4e86\u864e\u4e0d\uff1f"},
			{"id":"11","name":"\u6df1\u5733\u56fd\u8003\u8ba2\u623f","phone":"12313131","address":"\u6df1\u5733\u7ea2\u70e7\u9152\u5357\u5c71\u5206\u5e97","lng":"113.971932","lat":"22.537509","wechat":"hongshaojiu","duration":"1:00-2:00","desc":"\u4e09\u7897\u4e0d\u8fc7\u5c97\uff0c\u8bf4\u7684\u5c31\u662f\u54b1\uff0c\u6709\u79cd\u6765\u8bd5\u8bd5\uff1f\u8fd8\u6253\u5f97\u4e86\u864e\u4e0d\uff1f"},
			{"id":"10","name":"\u6df1\u5733\u4e2a\u4eba\u7f51","phone":"12313131","address":"\u6df1\u5733\u7ea2\u70e7\u9152\u5357\u5c71\u5206\u5e97","lng":"113.945486","lat":"22.510801","wechat":"hongshaojiu","duration":"1:00-2:00","desc":"\u4e09\u7897\u4e0d\u8fc7\u5c97\uff0c\u8bf4\u7684\u5c31\u662f\u54b1\uff0c\u6709\u79cd\u6765\u8bd5\u8bd5\uff1f\u8fd8\u6253\u5f97\u4e86\u864e\u4e0d\uff1f"},
			{"id":"9","name":"\u6df1\u5733\u770b\u4e8c\u5206","phone":"12313131","address":"\u6df1\u5733\u7ea2\u70e7\u9152\u5357\u5c71\u5206\u5e97","lng":"114.101863","lat":"22.540713","wechat":"hongshaojiu","duration":"1:00-2:00","desc":"\u4e09\u7897\u4e0d\u8fc7\u5c97\uff0c\u8bf4\u7684\u5c31\u662f\u54b1\uff0c\u6709\u79cd\u6765\u8bd5\u8bd5\uff1f\u8fd8\u6253\u5f97\u4e86\u864e\u4e0d\uff1f"},
			{"id":"8","name":"\u6df1\u5733\u4eba\u4eba\u53d1\u591f","phone":"12313131","address":"\u6df1\u5733\u7ea2\u70e7\u9152\u5357\u5c71\u5206\u5e97","lng":"113.962733","lat":"22.57489","wechat":"hongshaojiu","duration":"1:00-2:00","desc":"\u4e09\u7897\u4e0d\u8fc7\u5c97\uff0c\u8bf4\u7684\u5c31\u662f\u54b1\uff0c\u6709\u79cd\u6765\u8bd5\u8bd5\uff1f\u8fd8\u6253\u5f97\u4e86\u864e\u4e0d\uff1f"},
			{"id":"7","name":"\u6df1\u5733\u7ea2\u70e7\u9152","phone":"12313131","address":"\u6df1\u5733\u7ea2\u70e7\u9152\u5357\u5c71\u5206\u5e97","lng":"113.883395","lat":"22.57489","wechat":"hongshaojiu","duration":"1:00-2:00","desc":"\u4e09\u7897\u4e0d\u8fc7\u5c97\uff0c\u8bf4\u7684\u5c31\u662f\u54b1\uff0c\u6709\u79cd\u6765\u8bd5\u8bd5\uff1f\u8fd8\u6253\u5f97\u4e86\u864e\u4e0d\uff1f"},
			{"id":"6","name":"\u6df1\u5733\u9694\u70ed","phone":"12313131","address":"\u6df1\u5733\u7ea2\u70e7\u9152\u5357\u5c71\u5206\u5e97","lng":"114.027124","lat":"22.541781","wechat":"hongshaojiu","duration":"1:00-2:00","desc":"\u4e09\u7897\u4e0d\u8fc7\u5c97\uff0c\u8bf4\u7684\u5c31\u662f\u54b1\uff0c\u6709\u79cd\u6765\u8bd5\u8bd5\uff1f\u8fd8\u6253\u5f97\u4e86\u864e\u4e0d\uff1f"},
			{"id":"5","name":"\u6df1\u5733\u516c\u4ea4\u5361\u53d1\u91d1\u989d","phone":"12313131","address":"\u6df1\u5733\u7ea2\u70e7\u9152\u5357\u5c71\u5206\u5e97","lng":"113.973082","lat":"22.581298","wechat":"hongshaojiu","duration":"1:00-2:00","desc":"\u4e09\u7897\u4e0d\u8fc7\u5c97\uff0c\u8bf4\u7684\u5c31\u662f\u54b1\uff0c\u6709\u79cd\u6765\u8bd5\u8bd5\uff1f\u8fd8\u6253\u5f97\u4e86\u864e\u4e0d\uff1f"},
			{"id":"4","name":"\u6df1\u5733\u6b3e\u5230\u53d1\u8d27","phone":"12313131","address":"\u6df1\u5733\u7ea2\u70e7\u9152\u5357\u5c71\u5206\u5e97","lng":"113.98228","lat":"22.539645","wechat":"hongshaojiu","duration":"1:00-2:00","desc":"\u4e09\u7897\u4e0d\u8fc7\u5c97\uff0c\u8bf4\u7684\u5c31\u662f\u54b1\uff0c\u6709\u79cd\u6765\u8bd5\u8bd5\uff1f\u8fd8\u6253\u5f97\u4e86\u864e\u4e0d\uff1f"},
			{"id":"3","name":"\u6df1\u5733\u7ea2\u70e7\u9152","phone":"12313131","address":"\u6df1\u5733\u7ea2\u70e7\u9152\u5357\u5c71\u5206\u5e97","lng":"113.962733","lat":"22.543117","wechat":"hongshaojiu","duration":"1:00-2:00","desc":"\u4e09\u7897\u4e0d\u8fc7\u5c97\uff0c\u8bf4\u7684\u5c31\u662f\u54b1\uff0c\u6709\u79cd\u6765\u8bd5\u8bd5\uff1f\u8fd8\u6253\u5f97\u4e86\u864e\u4e0d\uff1f"},
            {"id":"2","name":"\u6df1\u5733\u7279\u5356","phone":"1212121212","address":"\u6df1\u5733\u5357\u5c71\u533a\u6df1\u5733\u5927\u5b66","lng":"114.015051","lat":"22.541514","wechat":"shenzhentemai","duration":"1:00-2:00","desc":"\u5f00\u5728\u6df1\u5733\u5927\u5b66\u91cc\u7684\u9152\u574a\uff0c\u9152\u9999\u5341\u91cc\u3002\u9152\u4e0d\u9189\u4eba\u4eba\u90fd\u9189\u4e86\u3002\u6212\u9152\u7684\u9a9a\u5e74\u52ff\u9760\u8fd1\u65b9\u570610\u516c\u91cc\uff0c\u4fdd\u8bc1\u60a8\u6212\u9152\u5931\u8d25\u3002\u672c\u5e97\u4e0d\u62c5\u8d23\u4efb\uff01"}]
        },
        {"city":"\u5170\u5dde","partners":[
            {"id":"1","name":"\u5170\u5dde\u70e7\u997c\u7ea2\u9152","phone":"12937981","address":"\u5170\u5dde\u5927\u8857\u5f52\u5eca\u574a12\u53f7","lng":"103.8578","lat":"36.058391","wechat":"lanzhoushaobing","duration":"9:00-10:00","desc":"\u5170\u5dde\u70e7\u997c\u7ea2\u9152\u662f\u4e00\u5bb6\u4e13\u95e8\u5356\u7ea2\u9152\u7684\u9152\u5e84\u3002\u6ca1\u9519\uff0c\u4f60\u6ca1\u770b\u9519\uff0c\u5170\u5dde\u6700\u6709\u540d\u7684\u7ea2\u9152\u4e13\u5356\u5e97\uff0c\u8d70\u8fc7\u8def\u8fc7\u9519\u8fc7\u8bf7\u4f60\u8c03\u4e2a\u5934\u518d\u56de\u6765\u3002\u7edd\u5bf9\u503c\u5f97\u62e5\u6709\uff01"}]
        }]
    }
]}